{"_default": {"1": {"title": "Moj dom", "description": "Tupali\u0161e moj doma", "imageUrl": "https://source.unsplash.com/random/200x200?sig=1", "lat": "46.289645362027954", "lng": "14.427128466044753"}, "2": {"title": "Moj skoraj doma", "description": "Test 123", "imageUrl": "", "lat": "46.289145557107105", "lng": "14.427922708379814"}, "3": {"title": "test", "description": "tsdtds", "imageUrl": "https://source.unsplash.com/random/200x200?sig=1", "lat": "46.26130176765835", "lng": "14.39363479614258"}, "4": {"title": "Ss", "description": "Sgnku", "imageUrl": "", "lat": "46.23991977375034", "lng": "14.355037808418276"}, "5": {"title": "test sodja", "description": "sasad", "imageUrl": "", "lat": "46.275546388035885", "lng": "14.386768341064453"}, "6": {"title": "Test", "description": "test", "imageUrl": "https://picsum.photos/200", "lat": "46.25299810220038", "lng": "14.355354309082033"}}}